Title,Lat,Long,Client,Location,Year,Format,Service,stackNumber
AlSager Mall,29.3759,47.9774,AlSager Wertel Architects,Kuwait City [Kuwait],2023,Commercial,"Design, Documentation & Coordination",0
KFAS 3D Printed Bus-Stop,29.3759,47.9774,AlSager Wertel Architects,Kuwait City [Kuwait],2023,Commercial,"Design, Documentation & Coordination",1
Great Portland St,51.5072,0.1276,E8 Architects,London [UK],2022,Multi-unit Residential,"Design,Documentation & Fabrication Coordination",0
A+M House Alterations,-40.0793,-175.3793,242am Architects,Marton [NZ],2022, Residential renovation,Multi-Objective Optimization,0
Wonova,52.3676,4.9041,Etcetera,Amsterdam [NL],2022,Research & Development,Computational Support,0
KAIA Residences,35.1264,33.4299,EB Studio,Cyprus,2022,Multi-unit Residential,Environmental Analysis,0
